[{"name":"127 Brewing","brewery_type":"micro","city":"Jackson","address":"3090 Shirley Dr","phone":"5172581346","website_url":null,"longitude":-84.43116792,"latitude":42.28667212},
{"name":"5 Lakes Brewing Co.","brewery_type":"brewpub","city":"Dorr","address":"1638 142nd Ave","phone":"6163599555","website_uMichiganrl":"http:\/\/www.5lakesbrewing.com","longitude":-85.70445518,"latitude":42.72497157},
{"name":"51st State Brewing Company","brewery_type":"brewpub","city":"Kingsford","address":"115 Harding Ave","phone":"9068282167","website_url":"http:\/\/www.51ststatebrewingcompany.com","longitude":-88.08819,"latitude":45.808408},
{"name":"734 Brewing Company","brewery_type":"micro","city":"Ypsilanti","address":"15 E Cross St","phone":"7346496453","website_url":null,"longitude":-83.61103475,"latitude":42.24586784},
{"name":"Aberrant Ales","brewery_type":"brewpub","city":"Howell","address":"219 W Grand River Ave","phone":"5175188699","website_url":"http:\/\/www.aberrantales.com","longitude":-83.93094539,"latitude":42.60773722},
{"name":"Abner's Restaurant Inc \/ Northern Michigan Beer","brewery_type":"brewpub","city":"Brohman","address":"7528 N Woodbridge (M37)","phone":"2316892295","website_url":null,"longitude":null,"latitude":null},
{"name":"Albion Malleable Brewing Company","brewery_type":"brewpub","city":"Albion","address":"420 S Superior St","phone":"5173432202","website_url":"http:\/\/www.albionmalleable.com","longitude":-84.7532755,"latitude":42.2423188},
{"name":"Alma Brewing Co","brewery_type":"brewpub","city":"Alma","address":"208 E Superior St","phone":"9894620208","website_url":"http:\/\/www.almabrewing.com","longitude":-84.6588719,"latitude":43.37888808},
{"name":"American Badass Beer","brewery_type":"contract","city":"Detroit","address":"1401 Abbott St Corktown","phone":null,"website_url":"http:\/\/www.americanbadassbeer.com","longitude":null,"latitude":null},
{"name":"American Brewers Inc","brewery_type":"micro","city":"Kalamazoo","address":"3408 Miller Rd","phone":"2692171920","website_url":"http:\/\/www.americanbrewers.us","longitude":-85.5378194,"latitude":42.26671998},
{"name":"American Harvest Brewpub At Schoolcraft College","brewery_type":"brewpub","city":"Livonia","address":"18600 Haggerty Rd","phone":"7344627659","website_url":"http:\/\/www.schoolcraft.edu","longitude":-83.42868497,"latitude":42.419317},
{"name":"Arbor Brewing Co","brewery_type":"brewpub","city":"Ann Arbor","address":"114 E Washington St","phone":"7342131393","website_url":"http:\/\/www.arborbrewing.com","longitude":-83.74822471,"latitude":42.28041029},
{"name":"Arbor Brewing Co. Microbrewery","brewery_type":"micro","city":"Ypsilanti","address":"720 Norris St","phone":"7344802739","website_url":null,"longitude":-83.6099915,"latitude":42.250158},
{"name":"Arcadia Brewing Co","brewery_type":"micro","city":"Kalamazoo","address":"701 E Michigan Ave","phone":"2692760458","website_url":"http:\/\/www.arcadiaales.com","longitude":-85.5715368,"latitude":42.2950789},
{"name":"Arclight Brewing Company","brewery_type":"micro","city":"Watervliet","address":"544 N Main St","phone":"2693320718","website_url":"http:\/\/www.arclightbrewing.com","longitude":-86.25939238,"latitude":42.19104832},
{"name":"Arvon Brewing Co.","brewery_type":"micro","city":"Grandville","address":"3057 Broadway Ave SW","phone":"6162240086","website_url":"http:\/\/www.arvonbrewingco.com","longitude":-85.7720434,"latitude":42.909272},
{"name":"Ascension Brewing Company","brewery_type":"brewpub","city":"Novi","address":"42000 Grand River Ave","phone":"2483082093","website_url":"http:\/\/www.ascension.beer","longitude":-83.4609783,"latitude":42.4783271},
{"name":"Atwater Brewing Co","brewery_type":"regional","city":"Detroit","address":"237 Joseph Campau St","phone":"3138779205","website_url":"http:\/\/www.atwaterbeer.com","longitude":-83.072904,"latitude":42.4190883},
{"name":"Atwater Grand Rapids","brewery_type":"brewpub","city":"Grand Rapids","address":"201 Michigan St NW","phone":"6166493020","website_url":null,"longitude":-85.672454,"latitude":42.970463},
{"name":"Atwater In the Park Biergarten and Tap House","brewery_type":"brewpub","city":"Grosse Pointe Park","address":"1175 Lakepointe St","phone":"3133445104","website_url":"http:\/\/www.atwaterbeer.com","longitude":-82.9399103,"latitude":42.3814617},
{"name":"Austin Brothers' Beer Company","brewery_type":"brewpub","city":"Alpena","address":"821 W Miller St","phone":"9893402300","website_url":"http:\/\/www.austinbrosbeerco.com","longitude":-83.43583578,"latitude":45.07296998},
{"name":"Axle Brewing Company","brewery_type":"micro","city":"Ferndale","address":"567 Livernois St","phone":"2486137002","website_url":"http:\/\/www.axlebrewing.com","longitude":-83.1428144,"latitude":42.4508021},
{"name":"B.O.B's Brewery","brewery_type":"brewpub","city":"Grand Rapids","address":"20 Monroe Ave NW","phone":"6163562000","website_url":"http:\/\/thebobsbrewery.thebob.com","longitude":-85.67248446,"latitude":42.9638257},
{"name":"BAD Brewing Co","brewery_type":"micro","city":"Mason","address":"440 S Jefferson St","phone":"5176767664","website_url":"http:\/\/www.badbrewing.com","longitude":-84.4433383,"latitude":42.5786176},
{"name":"Baffin Brewing Co","brewery_type":"micro","city":"Saint Clair Shores","address":"25113 Jefferson Ave","phone":"5862187990","website_url":"http:\/\/baffinbrewing.com","longitude":-82.888964,"latitude":42.472227},
{"name":"Bam Entertainment Center","brewery_type":"brewpub","city":"Holland","address":"478 E 16th St","phone":"6163927086","website_url":"http:\/\/www.gobamgo.com","longitude":-86.08555156,"latitude":42.7812873},
{"name":"Barn Brewers","brewery_type":"brewpub","city":"Lawton","address":"114 N Main St","phone":"2692990482","website_url":"http:\/\/www.barnbrewersbrewery.com","longitude":-85.84966443,"latitude":42.16834814},
{"name":"Barrel and Beam","brewery_type":"micro","city":"Marquette","address":"260 Northwoods RD","phone":"9062732559","website_url":"http:\/\/www.barrelandbeam.com","longitude":-87.4722168,"latitude":46.54578},
{"name":"Bastone Brewery","brewery_type":"brewpub","city":"Royal Oak","address":"419 S Main St","phone":"2485446250","website_url":"http:\/\/www.bastone.net\/br\/bastone-brewery","longitude":-83.1440578,"latitude":42.4836283},
{"name":"Batch Brewing Co","brewery_type":"brewpub","city":"Detroit","address":"1400 Porter St","phone":"3133388008","website_url":"http:\/\/www.BatchBrewingCompany.com","longitude":-83.088689,"latitude":42.3184806},
{"name":"Beards Brewery","brewery_type":"brewpub","city":"Petoskey","address":"215 E Lake St","phone":"2317532221","website_url":"http:\/\/www.beardsbrewery.com","longitude":-84.95425838,"latitude":45.37533801},
{"name":"Beards Brewery Production Facility","brewery_type":"micro","city":"Charlevoix","address":"6328 Ferry Ave","phone":null,"website_url":null,"longitude":-85.249116,"latitude":45.304738},
{"name":"Beer Church Brewing Company","brewery_type":"contract","city":"New Buffalo","address":"24 S Whittaker St","phone":"2192413876","website_url":"http:\/\/www.beerchurchbrewing.com","longitude":-86.74311848,"latitude":41.79322148},
{"name":"Belding Brewing Company","brewery_type":"planning","city":"Belding","address":null,"phone":"6163086285","website_url":null,"longitude":null,"latitude":null},
{"name":"Bell's Brewery, Inc","brewery_type":"regional","city":"Galesburg","address":"8938 Krum Ave","phone":"2693822338","website_url":"http:\/\/www.bellsbeer.com","longitude":null,"latitude":null},
{"name":"Bell's Eccentric Cafe","brewery_type":"brewpub","city":"Kalamazoo","address":"355 E Kalamazoo Ave","phone":"2693822332","website_url":"http:\/\/www.bellsbeer.com","longitude":-85.57887292,"latitude":42.29491555},
{"name":"Bella Casa Di Vino","brewery_type":"brewpub","city":"Saint Clair","address":"201 N Riverside Ave","phone":"8103261212","website_url":"http:\/\/www.suescoffeehouse.com","longitude":-82.48591,"latitude":42.823895},
{"name":"Bier Distillery","brewery_type":"micro","city":"Comstock Park","address":"5295 West River Dr NE Ste 100","phone":"6168889746","website_url":"http:\/\/bierdistillery.com","longitude":null,"latitude":null},
{"name":"Biercamp","brewery_type":"brewpub","city":"Ann Arbor","address":"1643 S State St","phone":"7349952437","website_url":"http:\/\/www.bier-camp.com","longitude":-83.740111,"latitude":42.2586786},
{"name":"Biere De Mac Brew Works","brewery_type":"micro","city":"Mackinaw City","address":"14277 N Mackinaw Hwy","phone":"2314277007","website_url":"http:\/\/www.bieredemac.com","longitude":null,"latitude":null},
{"name":"Big Boiler Brewing","brewery_type":"brewpub","city":"Lowell","address":"318 E Main St","phone":"6169873155","website_url":"http:\/\/bigboilerbrewing.com","longitude":-85.33655351,"latitude":42.93462931},
{"name":"Big Cat Brewing Company","brewery_type":"brewpub","city":"Cedar","address":"8699 S Good Harbor Trl","phone":"2312282282","website_url":"http:\/\/www.bigcatbrewingco.com","longitude":-85.79311511,"latitude":44.85319287},
{"name":"Big Hart Brewing Company","brewery_type":"brewpub","city":"Hart","address":"4086 W Polk Rd","phone":"2313018226","website_url":"http:\/\/www.bighartbrewing.com","longitude":null,"latitude":null},
{"name":"Big Lake Brewing","brewery_type":"micro","city":"Holland","address":"13 W 7th St","phone":"6167968888","website_url":"http:\/\/www.biglakebrewing.com","longitude":-86.10791587,"latitude":42.79149405},
{"name":"Big Lake Brewing Production Facility","brewery_type":"micro","city":"Holland","address":"166 E 19th St","phone":null,"website_url":null,"longitude":-86.09988824,"latitude":42.78029471},
{"name":"Big Rock Chop House & Brewery","brewery_type":"contract","city":"Birmingham","address":"245 S Eton St","phone":"2486477774","website_url":"http:\/\/www.bigrockchophouse.com","longitude":-83.19603911,"latitude":42.54693868},
{"name":"Bilbo's Pizza and Brewery","brewery_type":"brewpub","city":"Kalamazoo","address":"3307 Stadium Dr","phone":"2693825544","website_url":"http:\/\/www.bilbospizza.com","longitude":-85.63122494,"latitude":42.27160225},
{"name":"Bitter Old Fecker Rustic Ales","brewery_type":"micro","city":"Chelsea","address":"12855 E Old US Hwy 12","phone":"7344445201","website_url":null,"longitude":-83.98452281,"latitude":42.2995379},
{"name":"Black Fire Winery","brewery_type":"micro","city":"Tecumseh","address":"1261 E Munger Rd","phone":"5174249232","website_url":null,"longitude":null,"latitude":null},
{"name":"Black Lotus Brewing Co","brewery_type":"brewpub","city":"Clawson","address":"1 E 14 Mile Rd","phone":"2485771878","website_url":"http:\/\/WWW.BLACKLOTUSBEER.COM","longitude":-83.141428,"latitude":42.533563},
{"name":"Blackrocks Brewery","brewery_type":"micro","city":"Marquette","address":"424 N 3rd St","phone":"9062731333","website_url":"http:\/\/www.blackrocksbrewery.com","longitude":-87.39462133,"latitude":46.5464589},
{"name":"Blackrocks Brewery - Production Facility","brewery_type":"micro","city":"Marquette","address":"950 W Washington St","phone":"9062731333","website_url":"http:\/\/www.blackrocksbrewery.com","longitude":-87.41368794,"latitude":46.54594024},
{"name":"Block Brewing Company","brewery_type":"brewpub","city":"Howell","address":"1140 S Michigan Ave","phone":null,"website_url":"http:\/\/www.blockbrewingcompany.com","longitude":-83.931806,"latitude":42.603858},
{"name":"Blue Cow Cafe\/Big Rapids Brewing Co","brewery_type":"brewpub","city":"Big Rapids","address":"119 N Michigan Ave","phone":"2317960100","website_url":"http:\/\/www.bluecowcafe.com","longitude":-85.48211793,"latitude":43.69871439},
{"name":"Blue Pike Cantina","brewery_type":"brewpub","city":"Marine City","address":"152 S Water St","phone":"8107654200","website_url":null,"longitude":-82.49085669,"latitude":42.71829576},
{"name":"Blue Tractor Brewing Co","brewery_type":"brewpub","city":"Ann Arbor","address":"207 E Washington St","phone":"7342224095","website_url":null,"longitude":-83.74704578,"latitude":42.28052759},
{"name":"Boatyard Brewing Co","brewery_type":"micro","city":"Kalamazoo","address":"432 E Paterson St","phone":"2692260300","website_url":"http:\/\/www.boatyardbrewing.com","longitude":-85.578439,"latitude":42.303203},
{"name":"Brass Ring Brewery","brewery_type":"brewpub","city":"Grand Rapids","address":"2404 Eastern Ave SE","phone":"6164601587","website_url":"http:\/\/www.brassringbrewing.com","longitude":-85.64741488,"latitude":42.91987422},
{"name":"Bravo! Restaurant & Cafe","brewery_type":"brewpub","city":"Portage","address":"5402 Portage Rd","phone":"2693447700","website_url":"http:\/\/www.bravokalamazoo.com","longitude":-85.56023131,"latitude":42.23892918},
{"name":"Greenbush Annex","brewery_type":"micro","city":"Sawyer","address":"5870 Sawyer Rd","phone":null,"website_url":null,"longitude":-86.59404729,"latitude":41.88540971},
{"name":"Brew Detroit","brewery_type":"micro","city":"Detroit","address":"1401 Abbott St","phone":"3139747366","website_url":"http:\/\/www.brewdetroit.com","longitude":-83.0619769,"latitude":42.32770289},
{"name":"Brew Works of Fremont","brewery_type":"brewpub","city":"Fremont","address":"5909 S Warner Ave","phone":"2313355105","website_url":"http:\/\/www.thecommonsoffremont.com","longitude":-85.94003325,"latitude":43.44380716},
{"name":"Brewery 4 Two 4","brewery_type":"micro","city":"Holland","address":"321 Douglas Ave Ste 120","phone":"6163777773","website_url":"http:\/\/brewery424.com","longitude":null,"latitude":null},
{"name":"Brewery Becker","brewery_type":"brewpub","city":"Brighton","address":"500 W Main St","phone":"8108440225","website_url":"http:\/\/www.brauereibecker.us","longitude":-83.785481,"latitude":42.529522},
{"name":"Brewery Faisan","brewery_type":"planning","city":"Detroit","address":null,"phone":"5867032030","website_url":"http:\/\/www.breweryfaisan.com","longitude":null,"latitude":null},
{"name":"Brewery Ferment","brewery_type":"micro","city":"Traverse City","address":"511 S Union St","phone":"2317358113","website_url":"http:\/\/www.breweryferment.com","longitude":-85.62353552,"latitude":44.75888715},
{"name":"Brewery Terra Firma","brewery_type":"micro","city":"Traverse City","address":"2959 Hartman Rd","phone":"2319291600","website_url":"http:\/\/www.breweryterrafirma.com","longitude":-85.63510581,"latitude":44.71509875},
{"name":"Brewery Vivant","brewery_type":"brewpub","city":"Grand Rapids","address":"925 Cherry St SE","phone":"6167191604","website_url":"http:\/\/www.breweryvivant.com","longitude":-85.64683809,"latitude":42.95961591},
{"name":"BrickHaven Brewing Company","brewery_type":"micro","city":"Grand Ledge","address":"200 E Jefferson St","phone":"5179251319","website_url":null,"longitude":-84.745273,"latitude":42.752301},
{"name":"Brickside Brewery","brewery_type":"micro","city":"Copper Harbor","address":"64 Gratiot Street","phone":"9062894772","website_url":"http:\/\/www.bricksidebrewery.com","longitude":null,"latitude":null},
{"name":"Brite Eyes Brewing Co","brewery_type":"brewpub","city":"Kalamazoo","address":"1156 S Burdick St","phone":"2692205001","website_url":null,"longitude":-85.582846,"latitude":42.27977268},
{"name":"Broken Rock Brewery","brewery_type":"brewpub","city":"Port Austin","address":"282 Grindstone Rd Bird Creek Farms","phone":"2487033114","website_url":"http:\/\/birdcreekfarms.com","longitude":null,"latitude":null},
{"name":"Brooks Brewing","brewery_type":"micro","city":"Shelby Charter Township","address":"52033 Van Dyke","phone":"5868844741","website_url":"http:\/\/www.bbrewing.com","longitude":null,"latitude":null},
{"name":"Brown Iron Brewhouse","brewery_type":"brewpub","city":"Washington","address":"57695 Van Dyke Rd","phone":"586697330","website_url":"http:\/\/www.browniron.com","longitude":-83.03578521,"latitude":42.71929931},
{"name":"Burt Lake Brewery \/ Seasons of the North Winery","brewery_type":"micro","city":"Alanson","address":"9090 W M-68 Hwy","phone":"2315481280","website_url":"http:\/\/www.burtlakebrewery.com","longitude":null,"latitude":null},
{"name":"Canton Brew Works, LLC","brewery_type":"micro","city":"Canton","address":"8521 N Lilley Rd","phone":"7349277081","website_url":"http:\/\/www.cantonbrewworks.com","longitude":-83.4586331,"latitude":42.3224786},
{"name":"Castle Brewing Co","brewery_type":"brewpub","city":"Greenville","address":"1310 W Washington","phone":"6167126226","website_url":"http:\/\/www.castlebrewingco.com","longitude":null,"latitude":null},
{"name":"Cedar Springs Brewing Company","brewery_type":"brewpub","city":"Cedar Springs","address":"95 N Main # 34","phone":"616696","website_url":"http:\/\/www.CSBrew.com","longitude":null,"latitude":null},
{"name":"Cellar Brewing Co","brewery_type":"brewpub","city":"Sparta","address":"133 E Division St","phone":"6168830777","website_url":"http:\/\/www.cellarbrewingco.com","longitude":-85.70639839,"latitude":43.16082496},
{"name":"Cellarmen's Meadery, Microbrewery and Cidery","brewery_type":"micro","city":"Hazel Park","address":"24310 John R Rd","phone":"5864134206","website_url":"http:\/\/www.cellarmens.com","longitude":null,"latitude":null},
{"name":"Cheboygan Brewing Co","brewery_type":"micro","city":"Cheboygan","address":"101 N Main St","phone":"2312683277","website_url":"http:\/\/www.cheboyganbrewing.com","longitude":-84.4743633,"latitude":45.647403},
{"name":"Chelsea Alehouse Brewery","brewery_type":"brewpub","city":"Chelsea","address":"420 N Main St Ste 100","phone":"7344335500","website_url":"http:\/\/www.chelseaalehouse.com","longitude":null,"latitude":null},
{"name":"CHILLAX Brewing Company LLC","brewery_type":"planning","city":"Milford","address":null,"phone":"2483883458","website_url":null,"longitude":null,"latitude":null},
{"name":"City Built Brewing Company","brewery_type":"brewpub","city":"Grand Rapids","address":"820 Monroe Ave NW Ste 155","phone":"6168055755","website_url":"http:\/\/www.citybuiltbrewing.com","longitude":null,"latitude":null},
{"name":"CJs Brewing Co","brewery_type":"brewpub","city":"Commerce Township","address":"8115 Richardson Rd","phone":"2483667979","website_url":"http:\/\/www.cjsbrewingcompany.com","longitude":-83.44295839,"latitude":42.57743694},
{"name":"Clam Lake Beer Co","brewery_type":"brewpub","city":"Cadillac","address":"106 S Mitchell St Ste A","phone":"2317756150","website_url":"http:\/\/www.clamlakebeerco.com","longitude":null,"latitude":null},
{"name":"Cognition Brewing Company","brewery_type":"micro","city":"Ishpeming","address":"113 E Canda St","phone":"9062042724","website_url":"http:\/\/www.cognitionbrewing.com","longitude":-87.6681955,"latitude":46.4916806},
{"name":"Cognito Brewing Company","brewery_type":"brewpub","city":"Bangor","address":"142 W Monroe St","phone":"9718088863","website_url":"http:\/\/www.cognitobrewingcompany.com","longitude":-86.11152208,"latitude":42.31308099},
{"name":"Cold Iron Brewing","brewery_type":"micro","city":"Ironwood","address":"104 S Lowell St","phone":"9062857020","website_url":"http:\/\/www.coldironbrewing.com","longitude":-90.16984913,"latitude":46.45390575},
{"name":"ConfluxCity Brewing Company","brewery_type":"micro","city":"Portland","address":"110 N Water St","phone":"5175269091","website_url":"http:\/\/www.confluxcitybrew.com","longitude":-84.90321484,"latitude":42.87142429},
{"name":"Constantine Brewing Co","brewery_type":"brewpub","city":"Constantine","address":"145 S Washington St","phone":"2694351230","website_url":"http:\/\/www.constantinebrewingco.com","longitude":-85.66859588,"latitude":41.84164216},
{"name":"Cotton Brewing Co","brewery_type":"brewpub","city":"Adrian","address":"626 Oak St","phone":"5179026608","website_url":"http:\/\/www.cottonbrewing.com","longitude":-84.02463418,"latitude":41.89136136},
{"name":"Cranker's Brewery","brewery_type":"brewpub","city":"Big Rapids","address":"213 S State St","phone":"2317961919","website_url":null,"longitude":-85.483723,"latitude":43.688013},
{"name":"Cranker's Restaurant & Brewery","brewery_type":"brewpub","city":"Grand Rapids","address":"454 68th St SW","phone":"6168271919","website_url":"http:\/\/www.crankersbrewery.com","longitude":null,"latitude":null},
{"name":"Cranker's Restaurant & Brewery","brewery_type":"brewpub","city":"Mount Pleasant","address":"1207 E Pickard St","phone":"9897791919","website_url":"http:\/\/www.crankersbrewery.com","longitude":-84.76071102,"latitude":43.61176916},
{"name":"Cravings Bistro & Pub","brewery_type":"brewpub","city":"Benton Harbor","address":"1599 Mall Dr Ste B","phone":"2699349700","website_url":null,"longitude":null,"latitude":null},
{"name":"Creston Brewery","brewery_type":"brewpub","city":"Grand Rapids","address":"1504 Plainfield Ave NE","phone":"6168054523","website_url":"http:\/\/www.crestonbrewery.com","longitude":-85.66252661,"latitude":42.99120192},
{"name":"Dark Horse Brewing Co","brewery_type":"micro","city":"Marshall","address":"511 S Kalamazoo Ave","phone":"2697819940","website_url":"http:\/\/www.darkhorsebrewery.com","longitude":-84.96397652,"latitude":42.26638824},
{"name":"Dead Bear Brewing Co","brewery_type":"brewpub","city":"Grayling","address":"2552 S I 75 Business Loop","phone":"9897456289","website_url":null,"longitude":null,"latitude":null},
{"name":"Dearborn Brewing","brewery_type":"micro","city":"Dearborn","address":"21930 Michigan Ave","phone":"3139144187","website_url":"http:\/\/www.dearbornbrewing.com","longitude":-83.2433835,"latitude":42.30664415},
{"name":"Detroit Beer Co","brewery_type":"brewpub","city":"Detroit","address":"1529 Broadway St Ste 100","phone":"3139621529","website_url":"http:\/\/www.detroitbeerco.com","longitude":-83.04871786,"latitude":42.335962},
{"name":"Dimes Brewhouse","brewery_type":"micro","city":"Dimondale","address":"145 N Bridge St","phone":"5173032067","website_url":"http:\/\/www.dimesbrewhouse.com","longitude":-84.6483014,"latitude":42.64660055},
{"name":"Downey Brewing Company","brewery_type":"micro","city":"Dearborn","address":"13121 Prospect St","phone":"3132888442","website_url":"http:\/\/www.downeybrewingcompany.com","longitude":-83.17350725,"latitude":42.31625295},
{"name":"Drafting Table Brewing Company","brewery_type":"micro","city":"Wixom","address":"49438 Pontiac Trl","phone":"2489567279","website_url":"http:\/\/www.draftingtablebeer.com","longitude":-83.53663792,"latitude":42.52440117},
{"name":"Dragonmead Microbrewery","brewery_type":"micro","city":"Warren","address":"14600 E 11 Mile Rd","phone":"5867769428","website_url":null,"longitude":-83.0278041,"latitude":42.492142},
{"name":"Draught Horse Brewery","brewery_type":"brewpub","city":"New Hudson","address":"57721 Grand River Ave","phone":"2486173000","website_url":"http:\/\/www.draughthorsebrewery.com","longitude":-83.61459,"latitude":42.5113546},
{"name":"EagleMonk Pub and Brewery","brewery_type":"brewpub","city":"Lansing","address":"4906 W Mount Hope Hwy","phone":"5177087350","website_url":null,"longitude":-84.662048,"latitude":42.712054},
{"name":"Earthen Ales","brewery_type":"micro","city":"Traverse City","address":"1371 Gray Dr Ste 200","phone":"2312524270","website_url":"http:\/\/www.earthenales.com","longitude":-85.6454249,"latitude":44.755294},
{"name":"East Channel Brewing Company","brewery_type":"micro","city":"Munising","address":"209 Maple St","phone":"9063873007","website_url":"http:\/\/www.eastchannelbrewery.com","longitude":-86.65452518,"latitude":46.40934141},
{"name":"East West Brewing Co","brewery_type":"brewpub","city":"Grand Rapids","address":"1400 Lake Dr SE","phone":"6162885250","website_url":"http:\/\/www.eastwestbrewingcompany.com","longitude":-85.634947,"latitude":42.957318},
{"name":"Eastern Market Brewing Company","brewery_type":"micro","city":"Detroit","address":"2515 Riopelle St","phone":null,"website_url":"http:\/\/www.easternmarket.beer","longitude":-83.03876229,"latitude":42.346625},
{"name":"Eaton Pub & Grille Brewery \/ Charlotte Brewing Co","brewery_type":"brewpub","city":"Charlotte","address":"214 S Cochran Ave","phone":"5175438882","website_url":"http:\/\/www.eatonpub.com","longitude":-84.83579,"latitude":42.549391},
{"name":"EB Coffee and Pub","brewery_type":"brewpub","city":"Caledonia","address":"8980 N Rodgers Ct SE","phone":"6168917700","website_url":"http:\/\/www.ebcoffeepub.com","longitude":-85.50839333,"latitude":42.80145682},
{"name":"Edelbrau Brewing Company","brewery_type":"planning","city":"Ann Arbor","address":null,"phone":"7347075184","website_url":"http:\/\/www.edelbrau.com","longitude":null,"latitude":null},
{"name":"Elk Brewing Co","brewery_type":"brewpub","city":"Comstock Park","address":"400 Dodge Rd NE","phone":"6162385227","website_url":null,"longitude":null,"latitude":null},
{"name":"Elk Brewing Co","brewery_type":"brewpub","city":"Grand Rapids","address":"700 Wealthy St SE","phone":"6162385227","website_url":"http:\/\/www.elkbrewing.com","longitude":-85.6515221,"latitude":42.9554463},
{"name":"Elk Street Brewery","brewery_type":"brewpub","city":"Sandusky","address":"3 S Elk St","phone":"8103008049","website_url":"http:\/\/www.elkstreetbrewery.com","longitude":-82.82977088,"latitude":43.42036406},
{"name":"Ellison Brewery & Spirits","brewery_type":"micro","city":"East Lansing","address":"4903 Dawn Ave","phone":"5172035498","website_url":"http:\/\/www.ellisonbrewing.com","longitude":null,"latitude":null},
{"name":"Eternity Brewing Co","brewery_type":"micro","city":"Howell","address":"4060 E Grand River Ave","phone":"5172954904","website_url":"http:\/\/www.eternitybrewing.com","longitude":-83.9948055,"latitude":42.63273017},
{"name":"Exferimentation Brewing Company","brewery_type":"micro","city":"Pontiac","address":"7 N Saginaw St","phone":"2486481377","website_url":"http:\/\/www.exferimentationbrewing.com","longitude":-83.292346,"latitude":42.6369922},
{"name":"Falling Down Beer Co.","brewery_type":"brewpub","city":"Warren","address":"2270 E 10 Mile Rd","phone":null,"website_url":null,"longitude":-82.9805361,"latitude":42.4787048},
{"name":"Farmington Brewing Company LLC","brewery_type":"micro","city":"Farmington","address":"33336 Grand River Ave","phone":"2489579543","website_url":"http:\/\/fbcbrewing.com","longitude":-83.37603742,"latitude":42.4649541},
{"name":"Farmington Underground Canning and Kegging","brewery_type":"micro","city":"Farmington","address":null,"phone":null,"website_url":null,"longitude":null,"latitude":null},
{"name":"Fenton Winery & Brewery","brewery_type":"brewpub","city":"Fenton","address":"1370 N Long Lake Rd","phone":"8103734194","website_url":"http:\/\/www.fentonwinery.com","longitude":-83.70470876,"latitude":42.85155557},
{"name":"Fetch Brewing Co","brewery_type":"micro","city":"Whitehall","address":"100 W Colby St","phone":"2312157168","website_url":"http:\/\/www.fetchbrewing.com","longitude":-86.3494848,"latitude":43.4097727},
{"name":"Fife Lake Brewery","brewery_type":"planning","city":"Fife Lake","address":null,"phone":"2313926757","website_url":null,"longitude":null,"latitude":null},
{"name":"Fillmore 13 Brewery","brewery_type":"brewpub","city":"Pontiac","address":"7 N Saginaw St","phone":"2489773972","website_url":"http:\/\/www.fillmore13brewery.com","longitude":-83.292346,"latitude":42.6369922},
{"name":"Final Gravity Brewing Co","brewery_type":"brewpub","city":"Decatur","address":"103 N Phelps St","phone":"2694368052","website_url":"http:\/\/www.finalgravitybrew.com","longitude":-85.97454749,"latitude":42.10876694},
{"name":"Final Gravity Brewing Company","brewery_type":"planning","city":"Decatur","address":null,"phone":null,"website_url":"http:\/\/www.finalgravitybrew.com","longitude":null,"latitude":null},
{"name":"Final Gravity Brewing Company","brewery_type":"micro","city":"Kalamazoo","address":"246 N Burdick St","phone":null,"website_url":"http:\/\/www.finalgravitybrew.com","longitude":-85.58315888,"latitude":42.29324471},
{"name":"Fireside Brewing Co.","brewery_type":"micro","city":"Holland","address":"430 W 17th St Ste 27","phone":"6162943777","website_url":null,"longitude":null,"latitude":null},
{"name":"Fort Street Brewery","brewery_type":"brewpub","city":"Lincoln Park","address":"1660 Fort St","phone":"3133899620","website_url":"http:\/\/www.fortstreetbeer.com","longitude":-83.17610229,"latitude":42.25215845},
{"name":"Founders Brewing Co","brewery_type":"regional","city":"Detroit","address":"456 Charlotte St","phone":null,"website_url":null,"longitude":-83.0605729,"latitude":42.34299565},
{"name":"Founders Brewing Co","brewery_type":"regional","city":"Grand Rapids","address":"235 Grandville Ave SW","phone":"6167761195","website_url":"http:\/\/www.foundersbrewing.com","longitude":-85.6765753,"latitude":42.9524964},
{"name":"Founders Brewing Production Facility","brewery_type":"regional","city":"Grand Rapids","address":"900 Hynes Ave SW","phone":null,"website_url":null,"longitude":-85.67523323,"latitude":42.94662234},
{"name":"Fountain Hill Brewery","brewery_type":"brewpub","city":"Grand Rapids","address":"151 Fountain St NE","phone":"6162343690","website_url":null,"longitude":-85.664754,"latitude":42.965489},
{"name":"Four Leaf Brewing","brewery_type":"brewpub","city":"Clare","address":"412 N McEwan St","phone":"9894246114","website_url":"http:\/\/www.fourleafcraftbeer.com","longitude":-84.7683591,"latitude":43.8256884},
{"name":"Frankenmuth Brewing Co","brewery_type":"micro","city":"Frankenmuth","address":"425 S Main St","phone":"2489309440","website_url":"http:\/\/www.frankenmuthbrewery.com","longitude":-83.73929404,"latitude":43.32893336},
{"name":"Gallery Brewery","brewery_type":"brewpub","city":"Portland","address":"143 Kent St","phone":"5175269060","website_url":"http:\/\/www.thegallerybrewery.com","longitude":-84.90284271,"latitude":42.86985871},
{"name":"Ghost Isle Brewing Company","brewery_type":"planning","city":"New Buffalo","address":null,"phone":"2195611219","website_url":null,"longitude":null,"latitude":null},
{"name":"Glass Creek Winery","brewery_type":"micro","city":"Hastings","address":"450 N Whitmore Rd","phone":"2699482752","website_url":"http:\/\/www.glasscreekwinery.com","longitude":null,"latitude":null},
{"name":"Gonzo's BigDogg Brewery","brewery_type":"brewpub","city":"Kalamazoo","address":"140 S Westnedge Ave","phone":"2693822739","website_url":"http:\/\/www.gonzosbiggdoggbrewing.com","longitude":-85.59008261,"latitude":42.2908852},
{"name":"Grand Armory Brewing Production Facility","brewery_type":"micro","city":"Grand Haven","address":"1734 Airpark Dr","phone":"3106978958","website_url":null,"longitude":-86.19774282,"latitude":43.03862147},
{"name":"Grand Armory Brewing Co","brewery_type":"micro","city":"Grand Haven","address":"17 S 2nd St","phone":"6164147822","website_url":"http:\/\/www.grandarmorybrewing.com","longitude":-86.2312558,"latitude":43.06378759},
{"name":"Grand Rapids Brewing Company","brewery_type":"brewpub","city":"Grand Rapids","address":"1 Ionia Ave SW Ste 100","phone":"6164587000","website_url":"http:\/\/www.grbrewingcompany.com","longitude":null,"latitude":null},
{"name":"Grand River Brewery","brewery_type":"brewpub","city":"Jackson","address":"117 W Louis Glick Hwy","phone":"5179622427","website_url":"http:\/\/www.grandrivermarketplace.com","longitude":-84.406597,"latitude":42.249334},
{"name":"Grand River Brewery","brewery_type":"planning","city":"Marshall","address":null,"phone":null,"website_url":null,"longitude":null,"latitude":null},
{"name":"Grande Mere Inn \/ Cranberry Bog Bar","brewery_type":"brewpub","city":"Stevensville","address":"5800 Red Arrow Hwy","phone":"2694293591","website_url":"http:\/\/www.grandemereinn.com","longitude":-86.5287857,"latitude":42.01274111},
{"name":"Granite City Food & Brewery","brewery_type":"brewpub","city":"Detroit","address":"100 Renaissance Ctr","phone":null,"website_url":null,"longitude":-83.04053931,"latitude":42.32916295},
{"name":"Granite City Food & Brewery (#28)","brewery_type":"brewpub","city":"Troy","address":"699 W Big Beaver Rd","phone":"2485191040","website_url":"http:\/\/www.gcfb.com","longitude":-83.1616138,"latitude":42.56225169},
{"name":"Granite City Food & Brewery (#32)","brewery_type":"brewpub","city":"Northville","address":"39603 Traditions Dr","phone":"2486623400","website_url":"http:\/\/www.gcfb.net","longitude":null,"latitude":null},
{"name":"Gravel Bottom Craft Brewery","brewery_type":"micro","city":"Ada","address":"452 Ada Dr SE","phone":"6169207398","website_url":"http:\/\/www.gravelbottom.com","longitude":-85.4857858,"latitude":42.955144},
{"name":"Great Baraboo Brewing Co","brewery_type":"brewpub","city":"Clinton Township","address":"35905 Utica Rd","phone":"5867927397","website_url":"http:\/\/www.greatbaraboo.com","longitude":-82.96514018,"latitude":42.56028034},
{"name":"Great Legs Winery, Brewery, and Distillery","brewery_type":"micro","city":"Holland","address":"332 E Lakewood Blvd","phone":"6169169729","website_url":"http:\/\/www.greatlegswinery.com","longitude":null,"latitude":null},
{"name":"Green Bird Cellars and Organic Farms","brewery_type":"micro","city":"Northport","address":"9825 E Engles Rd","phone":"2313865636","website_url":"http:\/\/www.greenbirdcellars.com","longitude":null,"latitude":null},
{"name":"Greenbush Brewing Co","brewery_type":"micro","city":"Sawyer","address":"5885 Sawyer Rd","phone":"2694051076","website_url":"http:\/\/greenbushbrewing.com","longitude":-86.59431314,"latitude":41.88557686},
{"name":"Greyline Brewing","brewery_type":"brewpub","city":"Grand Rapids","address":"1727 Alpine Ave NW","phone":"6168213786","website_url":null,"longitude":-85.68843549,"latitude":42.99474375},
{"name":"Griffin Claw Brewing Co","brewery_type":"micro","city":"Birmingham","address":"575 S Eton St","phone":null,"website_url":"http:\/\/www.griffinclawbrewingcompany.com","longitude":-83.19546429,"latitude":42.5434572},
{"name":"Grizzly Peak Brewing Co","brewery_type":"brewpub","city":"Ann Arbor","address":"120 W Washington St Ste 1","phone":"7347417325","website_url":"http:\/\/www.grizzlypeak.net","longitude":null,"latitude":null},
{"name":"Guardian Brewing Company","brewery_type":"planning","city":"Saugatuck","address":null,"phone":"8125213611","website_url":"http:\/\/www.guardianbrewingco.com","longitude":null,"latitude":null},
{"name":"Harmony Brewing Co","brewery_type":"brewpub","city":"Grand Rapids","address":"1551 Lake Dr SE","phone":"6162330063","website_url":null,"longitude":-85.63066846,"latitude":42.95501346},
{"name":"Harmony Brewing Company - Harmony Hall","brewery_type":"brewpub","city":"Grand Rapids","address":"401 Stocking Ave NW","phone":null,"website_url":null,"longitude":-85.684118,"latitude":42.970732},
{"name":"Harpers Restaurant and Brewpub","brewery_type":"brewpub","city":"East Lansing","address":"131 Albert Ave","phone":"5173334040","website_url":"http:\/\/www.harpersbrewpub.com","longitude":-84.48282452,"latitude":42.73626665},
{"name":"Harsens Island Beer Co.","brewery_type":"brewpub","city":"Marysville","address":"808 Gratiot Blvd","phone":null,"website_url":null,"longitude":-82.47149301,"latitude":42.92247389},
{"name":"HawkPeak Brewing Company DBA Grand Haven Brew House","brewery_type":"brewpub","city":"Grand Haven","address":"101 Washington Ave # 2B","phone":"6166072060","website_url":"http:\/\/www.grandhavenbrewhouse.com","longitude":null,"latitude":null},
{"name":"Haymarket Brewery and Taproom","brewery_type":"micro","city":"Bridgman","address":"9301 Red Arrow Hwy","phone":"3126380707","website_url":null,"longitude":-86.55947806,"latitude":41.94715363},
{"name":"Heavenly Vineyards","brewery_type":"micro","city":"Morley","address":"15946 Jefferson Rd","phone":"6167102751","website_url":"http:\/\/heavenlyvineyards.weebly.com","longitude":-85.463503,"latitude":43.489827},
{"name":"Hereford and Hops Steakhouse and Brewpub","brewery_type":"brewpub","city":"Escanaba","address":"624 Ludington St","phone":"9067891945","website_url":"http:\/\/www.herefordandhops.com","longitude":-87.0564571,"latitude":45.7458964},
{"name":"Hideout Brewing Co","brewery_type":"brewpub","city":"Grand Rapids","address":"3113 Plaza Dr NE","phone":"6163619658","website_url":"http:\/\/www.hideoutbrewing.com","longitude":null,"latitude":null},
{"name":"Hillsdale Brewing Company","brewery_type":"brewpub","city":"Hillsdale","address":"25 Hillsdale St","phone":"5172128182","website_url":null,"longitude":-84.63154725,"latitude":41.92470888},
{"name":"HomeGrown Brewing Company","brewery_type":"brewpub","city":"Oxford","address":"28 N Washington St","phone":"2488918290","website_url":"http:\/\/www.homegrownbrewco.com","longitude":-83.26650386,"latitude":42.82656071},
{"name":"HOMES Brewery","brewery_type":"brewpub","city":"Ann Arbor","address":"2321 Jackson Ave","phone":"7349546637","website_url":"http:\/\/www.homesbrewery.com","longitude":-83.77845211,"latitude":42.28032635},
{"name":"Hometown Cellars Winery & Brewery","brewery_type":"micro","city":"Ithaca","address":"108 E Center St Ste D","phone":"9898756010","website_url":"http:\/\/www.hometowncellars.com","longitude":null,"latitude":null},
{"name":"Hop Head Farms Brewing, LLC","brewery_type":"planning","city":"Baroda","address":null,"phone":null,"website_url":null,"longitude":null,"latitude":null},
{"name":"Hop Lot Brewing Co.","brewery_type":"brewpub","city":"Suttons Bay","address":"658 S West Bay Shore Dr","phone":"2318664445","website_url":"http:\/\/www.hoplotbrewing.com","longitude":null,"latitude":null},
{"name":"Hopcat","brewery_type":"brewpub","city":"Grand Rapids","address":"25 Ionia Ave SW Ste 100","phone":"6164514677","website_url":"http:\/\/www.hopcat.com","longitude":null,"latitude":null},
{"name":"Hops, Bitters, And Mash","brewery_type":"planning","city":"Allen Park","address":null,"phone":null,"website_url":null,"longitude":null,"latitude":null},
{"name":"Howell's MainStreet Winery, Brewery & Pizzeria","brewery_type":"brewpub","city":"Howell","address":"201 W Grand River Ave","phone":"5175459463","website_url":"http:\/\/www.howellsmainstreetwinery.com","longitude":-83.93080102,"latitude":42.60768396},
{"name":"Hunter's Ale House","brewery_type":"brewpub","city":"Mount Pleasant","address":"4855 E Blue Grass Rd","phone":"9897792626","website_url":null,"longitude":null,"latitude":null},
{"name":"Ironbark Brewery","brewery_type":"micro","city":"Jackson","address":"2610 Kibby Rd","phone":"5177487988","website_url":null,"longitude":-84.43762976,"latitude":42.2188971},
{"name":"Jaden James Brewery @ The Cascade Winery","brewery_type":"brewpub","city":"Grand Rapids","address":"4665 Broadmoor Ave SE Ste 135","phone":"6166564665","website_url":"http:\/\/jadenjamesbrewery.com","longitude":-85.583194,"latitude":42.909899},
{"name":"Jamesport Brewing Co","brewery_type":"brewpub","city":"Ludington","address":"410 S James St","phone":"2318452522","website_url":"http:\/\/www.jamesportbrewingcompany.com","longitude":-86.44787302,"latitude":43.95168567},
{"name":"Jamex Brewing Co","brewery_type":"micro","city":"Saint Clair Shores","address":"21721 Harper Ave","phone":"5869442030","website_url":"http:\/\/www.jamexbrewing.com","longitude":-82.8986171,"latitude":42.5171113},
{"name":"Jasper Ridge Brewing Co","brewery_type":"brewpub","city":"Ishpeming","address":"1075 Country Ln Ste 100","phone":"9064856017","website_url":"http:\/\/www.countryvillageresort.com\/httpdocs\/html\/brewery.html","longitude":-87.6791485,"latitude":46.50148242},
{"name":"Jolly Pumpkin Artisan Ales","brewery_type":"micro","city":"Dexter","address":"2319 Bishop Cir E","phone":"7344264962","website_url":"http:\/\/www.jollypumpkin.com","longitude":-83.87683682,"latitude":42.32487277},
{"name":"Jolly Pumpkin Cafe and Brewery","brewery_type":"brewpub","city":"Ann Arbor","address":"311 S Main St","phone":"7349132730","website_url":"http:\/\/www.jollypumpkin.com","longitude":-83.7484551,"latitude":42.2791598},
{"name":"Jolly Pumpkin Pizzeria and Brewery","brewery_type":"brewpub","city":"Grand Rapids","address":"428 Bridge St NW","phone":"6164194676","website_url":null,"longitude":-85.6800865,"latitude":42.970511},
{"name":"Jolly Pumpkin Restaurant, Brewery & Distillery","brewery_type":"micro","city":"Traverse City","address":"13512 Peninsula Dr Old Mission Peninsula","phone":"2312234333","website_url":"http:\/\/www.jollypumpkin.com","longitude":null,"latitude":null},
{"name":"Kelsey Block Brewing Company","brewery_type":"brewpub","city":"Three Rivers","address":"41 N Main St","phone":"2697183667","website_url":"http:\/\/www.kelseyblock.com","longitude":-85.63333961,"latitude":41.94474661},
{"name":"Keweenaw Brewing Co","brewery_type":"micro","city":"Houghton","address":"408 Shelden Ave","phone":"9064825596","website_url":"http:\/\/www.keweenawbrewing.com","longitude":-88.5687729,"latitude":47.1219857},
{"name":"Keweenaw Brewing Co - Production Facility","brewery_type":"micro","city":"Houghton","address":"408 Shelden Ave","phone":"9064821937","website_url":"http:\/\/www.keweenawbrewing.com","longitude":-88.5687729,"latitude":47.1219857},
{"name":"Kickstand Brewing Co","brewery_type":"brewpub","city":"Commerce Township","address":"3050 Union Lake Rd Ste 4A","phone":"2483015941","website_url":"http:\/\/www.kickstandbrewingco.com","longitude":null,"latitude":null},
{"name":"Kitzingen Brewery","brewery_type":"brewpub","city":"Wyoming","address":"1760 44th St SW Ste 8","phone":"6168055077","website_url":"http:\/\/www.Kitzingen-Brewery.com","longitude":null,"latitude":null},
{"name":"Kuhnhenn Brewing Co","brewery_type":"micro","city":"Warren","address":"5919 Chicago Rd","phone":"5869798361","website_url":"http:\/\/www.kuhnhenn.beer","longitude":-83.023691,"latitude":42.523306},
{"name":"Kuhnhenn Clinton Township","brewery_type":"micro","city":"Clinton Township","address":"36000 Groesbeck Hwy","phone":"5862310249","website_url":null,"longitude":-82.91782739,"latitude":42.56179646},
{"name":"Lake Ann Brewing Co","brewery_type":"micro","city":"Lake Ann","address":"6535 First St","phone":"2316402327","website_url":"http:\/\/www.lakeannbrewing.com","longitude":null,"latitude":null},
{"name":"Lake Charlevoix Brewing Company","brewery_type":"brewpub","city":"Charlevoix","address":"111 Bridge Park Dr","phone":"2314373220","website_url":"http:\/\/www.lakecharlevoixbrewing.com","longitude":-85.25800112,"latitude":45.31728307},
{"name":"Lake Superior Brewing Co","brewery_type":"brewpub","city":"Grand Marais","address":"N-14283 Lake Avenue","phone":"9064942337","website_url":"http:\/\/www.grandmaraismichigan.com\/LSBC","longitude":null,"latitude":null},
{"name":"Lansing Brewing Company","brewery_type":"brewpub","city":"Lansing","address":"518 E Shiawassee St","phone":"5175996001","website_url":null,"longitude":-84.5455093,"latitude":42.7368424},
{"name":"Latitude 42","brewery_type":"brewpub","city":"Portage","address":"7842 Portage Rd Attn: Scott Freitas","phone":"2694594242","website_url":"http:\/\/www.latitude42brewingco.com","longitude":null,"latitude":null},
{"name":"Lehmans Orchard Brewery and Farmhouse","brewery_type":"brewpub","city":"Buchanan","address":"204 N Red Bud Trl","phone":"2693624063","website_url":"http:\/\/www.lehmansfarmhouse.com","longitude":-86.35834031,"latitude":41.82910596},
{"name":"Les Cheneaux Distillers","brewery_type":"brewpub","city":"Cedarville","address":"172 S Meridian St","phone":"9064841213","website_url":"http:\/\/www.lescheneauxdistillers.com","longitude":-84.36301089,"latitude":45.99742724},
{"name":"Lexington Brewing Co","brewery_type":"brewpub","city":"Lexington","address":"5475 Main St","phone":"8103595012","website_url":"http:\/\/www.lexingtonbrewery.com","longitude":-82.530867,"latitude":43.2678755},
{"name":"Liberty Street Brewing Co","brewery_type":"micro","city":"Plymouth","address":"149 W Liberty St Ste 1","phone":"2487054171","website_url":"http:\/\/www.libertystreetbeer.com","longitude":null,"latitude":null},
{"name":"Liberty Street Brewing Production Facility","brewery_type":"micro","city":"Livonia","address":"11721 Levan Rd","phone":null,"website_url":null,"longitude":-83.40169843,"latitude":42.36866123},
{"name":"Library Restaurant, Bar and Brewpub","brewery_type":"brewpub","city":"Houghton","address":"62 Isle Royale St","phone":"9064875882","website_url":"http:\/\/www.librarybrewpub.com","longitude":-88.56701063,"latitude":47.12215913},
{"name":"Lilys Seafood Restaurant and Brewery","brewery_type":"brewpub","city":"Royal Oak","address":"410 S Washington Ave","phone":"2485915459","website_url":null,"longitude":-83.14668688,"latitude":42.487039},
{"name":"Lockside Brewery \/ 1668 Winery","brewery_type":"brewpub","city":"Sault Sainte Marie","address":"100 W Portage Ave","phone":"9062595035","website_url":"http:\/\/1668winery.com\/thebeers\/","longitude":-84.34705,"latitude":46.500695},
{"name":"Loggers Brewing Company","brewery_type":"micro","city":"Saginaw","address":"1215 S River Rd","phone":"9894013085","website_url":"http:\/\/www.loggersbrewingcompany.com","longitude":-84.05193542,"latitude":43.40518225},
{"name":"Looking Glass Brewing Company","brewery_type":"brewpub","city":"Dewitt","address":"115 N Bridge St","phone":"5175827287","website_url":"http:\/\/www.facebook.com\/DeWittBreweryProject\/","longitude":-84.56922371,"latitude":42.84243629},
{"name":"Lucky Girl Brewing Co Crossroads","brewery_type":"brewpub","city":"Paw Paw","address":"34016 M 43","phone":"2696280054","website_url":"http:\/\/luckygirlcrossroads.com","longitude":null,"latitude":null},
{"name":"Ludington Bay Brewing Co","brewery_type":"brewpub","city":"Ludington","address":"515 S James St","phone":"2312396690","website_url":"http:\/\/ludingtonbaybrewing.com","longitude":-86.44763415,"latitude":43.95070214},
{"name":"Lumber Barons Brewery","brewery_type":"brewpub","city":"Bay City","address":"804 E Midland St","phone":"9898910100","website_url":"http:\/\/www.lumberbaronsbrewery.com","longitude":null,"latitude":null},
{"name":"Lynchpin Beer Company \/ The Laundry","brewery_type":"brewpub","city":"Fenton","address":"115 W Shiawassee Ave","phone":"8106298852","website_url":"http:\/\/www.lunchandbeyond.com","longitude":-83.70642814,"latitude":42.792852},
{"name":"Macatawa Ale Company","brewery_type":"micro","city":"Holland","address":"102 S River Ave","phone":"6168487677","website_url":"http:\/\/www.macatawaalecompany.com","longitude":-86.10911659,"latitude":42.79223968},
{"name":"Mackinaw Brewing Co","brewery_type":"brewpub","city":"Traverse City","address":"161 E Front St","phone":"2319331100","website_url":"http:\/\/www.mackinawbrewing.com","longitude":-85.62124459,"latitude":44.76426455},
{"name":"Mackinaw Trail Brewing Company \/ Mackinaw Trail Winery and Brewery","brewery_type":"micro","city":"Manistique","address":"103 W Lakeshore Dr","phone":"9063412303","website_url":"http:\/\/www.mackinawtrailwinery.com","longitude":-86.2503664,"latitude":45.9535761},
{"name":"McIntosh Orchards","brewery_type":"micro","city":"South Haven","address":"6431 107th Ave","phone":"7078783734","website_url":"http:\/\/www.mcintoshorchards.com","longitude":null,"latitude":null},
{"name":"MDs Sports Tavern and Grill","brewery_type":"brewpub","city":"Davison","address":"3040 N State Rd","phone":"8106536408","website_url":"http:\/\/www.mdsportstavern.com","longitude":-83.5173133,"latitude":43.05021425},
{"name":"MI Brewery \/ Kayla Rae Cellars","brewery_type":"micro","city":"Rockford","address":"31 Courtland St","phone":"6169517001","website_url":"http:\/\/www.kaylaraecellars.com","longitude":null,"latitude":null},
{"name":"Michigan Brewing Works","brewery_type":"brewpub","city":"Williamston","address":"3435 Dietz Rd","phone":"5176557777","website_url":null,"longitude":null,"latitude":null},
{"name":"Midland Brewing Co","brewery_type":"brewpub","city":"Midland","address":"5011 N Saginaw Road","phone":"9892597210","website_url":"http:\/\/www.midlandbrewing.com","longitude":-84.2910925,"latitude":43.6408678},
{"name":"Midtown Brewing Co","brewery_type":"micro","city":"Lansing","address":"402 S Washington Sq","phone":"5179771349","website_url":"http:\/\/www.midtownbrewingco.com","longitude":null,"latitude":null},
{"name":"Mishigama Craft Brewing \/ Ypsi Alehouse","brewery_type":"brewpub","city":"Ypsilanti","address":"124 Pearl St Ste 100","phone":"7344871555","website_url":"http:\/\/www.ypsialehouse.com","longitude":null,"latitude":null},
{"name":"Mitten Brewing Co - Northport","brewery_type":"brewpub","city":"Northport","address":"112 W Nagonaba St","phone":"6163182448","website_url":null,"longitude":-85.61801909,"latitude":45.129833},
{"name":"Motor City Brewing Works","brewery_type":"brewpub","city":"Detroit","address":"470 W Canfield St","phone":"3138322700","website_url":"http:\/\/www.motorcitybeer.com","longitude":-83.06603733,"latitude":42.3518156},
{"name":"Motor City Brewing Works Warehouse","brewery_type":"micro","city":"Detroit","address":"441 W Canfield St","phone":null,"website_url":null,"longitude":-83.06474893,"latitude":42.35151997},
{"name":"Mountain Town Brewing Co","brewery_type":"micro","city":"Mt Pleasant","address":"614 W Pickard St","phone":"9894004666","website_url":"http:\/\/www.mountaintownbrew.com","longitude":-84.78689552,"latitude":43.61180948},
{"name":"Mountain Town Station Restaurant & Brew Pub","brewery_type":"brewpub","city":"Mt Pleasant","address":"506 W Broadway St","phone":"9894004666","website_url":"http:\/\/www.mountaintownbrew.com","longitude":-84.7822205,"latitude":43.604568},
{"name":"New Holland Brewing","brewery_type":"planning","city":"Battle Creek","address":null,"phone":null,"website_url":null,"longitude":null,"latitude":null},
{"name":"New Holland Brewing Co","brewery_type":"regional","city":"Holland","address":"66 E 8th St","phone":"6163556422","website_url":"http:\/\/www.newhollandbrew.com","longitude":-86.10411872,"latitude":42.79010355},
{"name":"New Holland Brewing Co - Production Facility","brewery_type":"regional","city":"Holland","address":"690 Commerce Ct","phone":"6165102259","website_url":null,"longitude":null,"latitude":null},
{"name":"New Union Brewing","brewery_type":"micro","city":"Lowell","address":"400 W Main St","phone":"6163197171","website_url":"http:\/\/www.newunionbrewery.com","longitude":-85.355545,"latitude":42.931398},
{"name":"Newaygo Brewing Co","brewery_type":"brewpub","city":"Newaygo","address":"19 State Rd","phone":"2314526551","website_url":"http:\/\/www.newaygobrewing.com","longitude":-85.79585808,"latitude":43.42386642},
{"name":"North Center Brewing Co.","brewery_type":"brewpub","city":"Northville","address":"410 N Center St","phone":"2484447967","website_url":"http:\/\/www.northcenterbrewing.com","longitude":-83.48311135,"latitude":42.43412107},
{"name":"North Channel Brewing Co.","brewery_type":"brewpub","city":"Manistee","address":"86 Washington St","phone":"2312991020","website_url":"http:\/\/www.NorthChannelBrewing.com","longitude":-86.32379888,"latitude":44.24929388},
{"name":"North Peak Brewing Co","brewery_type":"brewpub","city":"Traverse City","address":"400 W Front St","phone":"2319417325","website_url":"http:\/\/www.northpeak.net","longitude":-85.6285431,"latitude":44.7643155},
{"name":"North Pier Brewing","brewery_type":"micro","city":"Benton Harbor","address":"670 N Shore Dr","phone":"2697577163","website_url":"http:\/\/www.northpierbrewing.com","longitude":-86.45499315,"latitude":42.12454349},
{"name":"Northern Oak Brewery","brewery_type":"brewpub","city":"Holly","address":"806 N Saginaw St","phone":"2486347515","website_url":"http:\/\/www.northernoakbrewery.com","longitude":-83.62737964,"latitude":42.80026273},
{"name":"Northville Winery and Brewery","brewery_type":"micro","city":"Northville","address":"630 Old Baseline Rd","phone":"2483206507","website_url":null,"longitude":null,"latitude":null},
{"name":"Odd Side Ales","brewery_type":"micro","city":"Grand Haven","address":"41 Washington Ave Ste 160","phone":"6169357326","website_url":"http:\/\/www.oddsideales.com","longitude":null,"latitude":null},
{"name":"Odd Side Ales Production Facility","brewery_type":"micro","city":"Grand Haven","address":"1810 Industrial Dr","phone":null,"website_url":null,"longitude":-86.1983973,"latitude":43.03124408},
{"name":"Old Boys Brewhouse","brewery_type":"brewpub","city":"Spring Lake","address":"971 W Savidge St","phone":"6168509950","website_url":"http:\/\/www.oldboysbrewhouse.com","longitude":-86.21215194,"latitude":43.07642829},
{"name":"Old Detroit Brewing Co","brewery_type":"planning","city":"Bloomfield Hills","address":null,"phone":null,"website_url":null,"longitude":null,"latitude":null},
{"name":"Old Mill Brewpub and Grill","brewery_type":"brewpub","city":"Plainwell","address":"717 E Bridge St","phone":"2692046601","website_url":"http:\/\/www.oldmillbrew.com","longitude":-85.63224537,"latitude":42.442939},
{"name":"Old Nation Brewing Company","brewery_type":"micro","city":"Williamston","address":"1500 W. Grand River Ave","phone":"5176551301","website_url":"http:\/\/www.oldnationbrewing.com","longitude":-84.2899561,"latitude":42.6878555},
{"name":"Olde Peninsula Brewpub and Restaurant","brewery_type":"brewpub","city":"Kalamazoo","address":"200 E Michigan Ave","phone":"2693432739","website_url":"http:\/\/www.oldepeninsula.com","longitude":-85.581578,"latitude":42.2916484},
{"name":"One Well Brewing","brewery_type":"planning","city":"Kalamazoo","address":null,"phone":"2694599240","website_url":null,"longitude":null,"latitude":null},
{"name":"One Well Brewing","brewery_type":"brewpub","city":"Kalamazoo","address":"4213 Portage St","phone":"2694599240","website_url":"http:\/\/www.onewellbrewing.com","longitude":-85.5591755,"latitude":42.2485915},
{"name":"OpenRoad Brewery","brewery_type":"brewpub","city":"Wayland","address":"128 S Main St","phone":"6162937855","website_url":"http:\/\/www.openroadbrewing.com","longitude":-85.64331774,"latitude":42.67311202},
{"name":"Oracle Brewing Company","brewery_type":"micro","city":"Saginaw","address":"122 N Michigan Ave","phone":"9894017446","website_url":"http:\/\/www.oraclebeer.com","longitude":-83.96401351,"latitude":43.417723},
{"name":"Ore Dock Brewing Co","brewery_type":"micro","city":"Marquette","address":"114 W Spring St","phone":"9068675309","website_url":"http:\/\/www.oredockbrewingcompany.com","longitude":-87.39388593,"latitude":46.54189135},
{"name":"Original Gravity Brewing Co","brewery_type":"brewpub","city":"Milan","address":"440 County St","phone":"7344397490","website_url":"http:\/\/www.ogbrewing.com","longitude":-83.67523597,"latitude":42.083974},
{"name":"Osgood Brewing","brewery_type":"brewpub","city":"Grandville","address":"4051 Chicago Dr SW","phone":null,"website_url":"http:\/\/www.osgoodbrewing.com","longitude":-85.76493039,"latitude":42.90907804},
{"name":"Our Brewing Co","brewery_type":"micro","city":"Holland","address":"76 E 8th St","phone":"6169948417","website_url":"http:\/\/www.ourbrewingcompany.com","longitude":-86.1037537,"latitude":42.7901898},
{"name":"Ozone's Brewhouse","brewery_type":"micro","city":"Lansing","address":"305 Beaver St","phone":"5179992739","website_url":"http:\/\/www.ozonesbrewhouse.com","longitude":-84.54860983,"latitude":42.7505921},
{"name":"Paddle Hard Brewing","brewery_type":"micro","city":"Grayling","address":"118 Michigan Ave","phone":"9897456388","website_url":"http:\/\/paddlehardbrewing.com","longitude":-84.709584,"latitude":44.66521},
{"name":"Paddle Hard Brewing","brewery_type":"brewpub","city":"Grayling","address":"227 E Michigan Ave","phone":"9897456388","website_url":null,"longitude":-84.71675164,"latitude":44.6600473},
{"name":"Paper City Development LLC","brewery_type":"planning","city":"Vicksburg","address":null,"phone":"6049961400","website_url":"http:\/\/papercitymillworks.com","longitude":null,"latitude":null},
{"name":"Parkers Hilltop Brewery","brewery_type":"brewpub","city":"Clarkston","address":"6110 Dixie Hwy","phone":"2483838444","website_url":"http:\/\/www.hilltopbrew.com","longitude":-83.4149011,"latitude":42.7174413},
{"name":"Paw Paw Brewing Company","brewery_type":"brewpub","city":"Paw Paw","address":"929 E Michigan Ave","phone":"2694150145","website_url":"http:\/\/pawpawbrewery.com","longitude":-85.87748984,"latitude":42.2192304},
{"name":"Paw Paw Brewing Company LLC","brewery_type":"micro","city":"PAW PAW","address":"780 S Gremps street","phone":"2695015241","website_url":"http:\/\/www.pawpawbrewing.com","longitude":-85.89437423,"latitude":42.2131394},
{"name":"Paw Paw Brewing Company Production Facility","brewery_type":"micro","city":"Paw Paw","address":"780 S Gremps St","phone":null,"website_url":null,"longitude":-85.89437423,"latitude":42.2131394},
{"name":"Perrin Brewing Company","brewery_type":"regional","city":"Comstock Park","address":"5910 Comstock Park Dr NW","phone":"6165511957","website_url":"http:\/\/www.perrinbrewing.com","longitude":null,"latitude":null},
{"name":"Petoskey Brewing","brewery_type":"micro","city":"Petoskey","address":"1844 M 119 Harbor-Petoskey Rd","phone":"2317532057","website_url":"http:\/\/www.petoskeybrewing.com","longitude":null,"latitude":null},
{"name":"Pigeon Hill Brewery Production Facility","brewery_type":"planning","city":"Muskegon","address":null,"phone":null,"website_url":null,"longitude":null,"latitude":null},
{"name":"Pigeon Hill Brewing Co","brewery_type":"micro","city":"Muskegon","address":"500 W Western Ave Ste 100","phone":"2313755184","website_url":"http:\/\/www.pigeonhillbrew.com","longitude":null,"latitude":null},
{"name":"Pike 51 Brewing","brewery_type":"brewpub","city":"Hudsonville","address":"3768 Chicago Dr","phone":"6166624589","website_url":"http:\/\/www.hudsonvillewinery.com","longitude":-85.87944718,"latitude":42.8606644},
{"name":"Pileated Brewing Co","brewery_type":"micro","city":"Ann Arbor","address":"2290 South Industrial Highway","phone":"7343696290","website_url":"http:\/\/www.pileatedbrewing.com","longitude":-83.73385304,"latitude":42.2528625},
{"name":"Pointless Brewery","brewery_type":"micro","city":"Ann Arbor","address":"3014 Packard St","phone":"9894554484","website_url":"http:\/\/www.pointlessbrew.com","longitude":-83.7297662,"latitude":42.260633},
{"name":"Poison Frog Brewing Company","brewery_type":"brewpub","city":"Jackson","address":"1908 Horton Rd","phone":"5177485997","website_url":null,"longitude":-84.4374522,"latitude":42.20141178},
{"name":"Presidential Brewing Co.","brewery_type":"planning","city":"Portage","address":null,"phone":"2694689765","website_url":"http:\/\/www.presidentialbrewing.com","longitude":null,"latitude":null},
{"name":"Railtown Brewing Co","brewery_type":"micro","city":"Dutton","address":"3595 68th St SE","phone":"6168812364","website_url":"http:\/\/www.railtownbrewing.com","longitude":-85.57833065,"latitude":42.84118888},
{"name":"Rare Bird Brewpub","brewery_type":"brewpub","city":"Traverse City","address":"229 Lake Ave","phone":"2319432053","website_url":"http:\/\/rarebirdbrewpub.com","longitude":-85.61932337,"latitude":44.75978039},
{"name":"Red Jacket Brewing at Michigan House Cafe","brewery_type":"brewpub","city":"Calumet","address":"300 6th St","phone":"9063371910","website_url":"http:\/\/www.michiganhousecafe.com\/brewpub.html","longitude":-88.4535254,"latitude":47.2464521},
{"name":"Redline Brewing Company","brewery_type":"micro","city":"Burton","address":"5470 Lapeer Rd","phone":"8102592009","website_url":"http:\/\/redlinebrewingcompany.com","longitude":-83.59795244,"latitude":43.01100775},
{"name":"Redwood Brewing Co","brewery_type":"brewpub","city":"Flint","address":"5304 Gateway Ctr","phone":"8102338000","website_url":"http:\/\/www.redwoodbrewingco.com","longitude":null,"latitude":null},
{"name":"Reed City Brewing Company","brewery_type":"brewpub","city":"Reed City","address":"141 W Upton Ave","phone":"2314654222","website_url":null,"longitude":-85.51071976,"latitude":43.875879},
{"name":"Right Brain Brewery","brewery_type":"micro","city":"Traverse City","address":"225 E Sixteenth St Ste A","phone":"2319441239","website_url":"http:\/\/www.rightbrainbrewery.com","longitude":null,"latitude":null},
{"name":"River Rouge Brewing Company","brewery_type":"micro","city":"Royal Oak","address":"406 E 4th St","phone":"2488020555","website_url":"http:\/\/www.riverrougebrew.com","longitude":-83.14059587,"latitude":42.48726531},
{"name":"River's Edge Brewing Co","brewery_type":"brewpub","city":"Milford","address":"125 S Main St Ste 400","phone":"2486851625","website_url":"http:\/\/www.riversedgebrew.com","longitude":null,"latitude":null},
{"name":"Roak Brewing Co.","brewery_type":"micro","city":"Royal Oak","address":"330 E Lincoln Ave","phone":"2482688780","website_url":"http:\/\/www.roakbrewing.com","longitude":-83.14209914,"latitude":42.48342093},
{"name":"Rochester Mills Beer Co","brewery_type":"brewpub","city":"Rochester","address":"400 Water St Ste 101","phone":"2486505080","website_url":"http:\/\/www.beercos.com","longitude":null,"latitude":null},
{"name":"Rochester Mills Production Brewery","brewery_type":"micro","city":"Auburn Hills","address":"3275 Lapeer W Rd","phone":"2483773130","website_url":"http:\/\/www.beercos.com","longitude":null,"latitude":null},
{"name":"Rockford Brewing Company","brewery_type":"brewpub","city":"Rockford","address":"12 E Bridge St","phone":"6169514677","website_url":"http:\/\/www.RockfordBrewing.com","longitude":null,"latitude":null},
{"name":"Rolling Oak Brewing Co","brewery_type":"micro","city":"Grayling","address":"509 Norway St","phone":"9897456280","website_url":"http:\/\/rollingoakbrewing.com","longitude":-84.716671,"latitude":44.661765},
{"name":"Round Barn Brewery \/ Round Barn Winery","brewery_type":"micro","city":"Baroda","address":"10983 Hills Rd","phone":"8007169463","website_url":"http:\/\/www.roundbarnwinery.com","longitude":-86.479395,"latitude":41.950161},
{"name":"Round Barn Brewery & Public House","brewery_type":"micro","city":"Baroda","address":"9151 First St","phone":"2693267059","website_url":"http:\/\/www.roundbarnbrewery.com","longitude":null,"latitude":null},
{"name":"Royal Oak Brewery","brewery_type":"brewpub","city":"Royal Oak","address":"215 E 4th St","phone":"2485441141","website_url":"http:\/\/www.royaloakbrewery.com","longitude":-83.14271229,"latitude":42.48739557},
{"name":"Rudbeckia Farm","brewery_type":"micro","city":"Petoskey","address":"3379 Lake Grove Rd","phone":"2316224173","website_url":"http:\/\/www.rudbeckiafarm.com","longitude":null,"latitude":null},
{"name":"Rupert's Brew House","brewery_type":"micro","city":"Kalamazoo","address":"773 W Michigan Ave","phone":"2693379911","website_url":"http:\/\/www.rupertsbrewhouse.com","longitude":-85.5941774,"latitude":42.29072325},
{"name":"Rustic Leaf Brewing Company","brewery_type":"micro","city":"Waterford","address":"7200 Highland Rd","phone":"2485999933","website_url":"http:\/\/www.rusticleafbrewingcompany.com","longitude":-83.4048664,"latitude":42.659901},
{"name":"Salt Springs Brewery","brewery_type":"brewpub","city":"Saline","address":"117 S Ann Arbor St","phone":"7342959191","website_url":"http:\/\/wwww.saltpsringsbrewery.com","longitude":-83.78105412,"latitude":42.16646594},
{"name":"Sanctuary Spirits","brewery_type":"micro","city":"Grand Ledge","address":"902 E Saginaw Hwy","phone":"5179251930","website_url":"http:\/\/www.sanctuaryspirits.com","longitude":-84.73453638,"latitude":42.7407777},
{"name":"Sandhill Crane Vineyards","brewery_type":"micro","city":"Jackson","address":"4724 Walz Rd","phone":"5177640679","website_url":"http:\/\/www.sandhillcranevineyards.com","longitude":null,"latitude":null},
{"name":"Saugatuck Brewing Co","brewery_type":"micro","city":"Douglas","address":"2948 Blue Star Hwy","phone":"2698577222","website_url":"http:\/\/www.saugatuckbrewing.com","longitude":-86.2120077,"latitude":42.62989386},
{"name":"Schmohz Brewery","brewery_type":"micro","city":"Grand Rapids","address":"2600 Patterson Ave SE Ste 1","phone":"6169490860","website_url":"http:\/\/www.schmohz.com","longitude":null,"latitude":null},
{"name":"Sherwood Brewing Co","brewery_type":"brewpub","city":"Shelby Township","address":"45689 Hayes Rd","phone":"5865329669","website_url":"http:\/\/www.sherwoodbrewing.com","longitude":-82.97361414,"latitude":42.63202014},
{"name":"Shipwreck Brewing Company","brewery_type":"brewpub","city":"Saint Clair Shores","address":"24409 Jefferson Ave","phone":"5869442266","website_url":"http:\/\/www.shipwreckbrewingcompany.com","longitude":-82.88877859,"latitude":42.47122231},
{"name":"Short's Brewing Co","brewery_type":"brewpub","city":"Bellaire","address":"121 N Bridge St","phone":"2315336622","website_url":"http:\/\/www.shortsbrewing.com","longitude":-85.21012429,"latitude":44.975604},
{"name":"Short's Brewing Co - Production Facility","brewery_type":"regional","city":"Elk Rapids","address":"211 Industrial Park Dr","phone":"2314982300","website_url":"http:\/\/www.shortsbrewing.com","longitude":null,"latitude":null},
{"name":"Silver Harbor Brewing Company","brewery_type":"brewpub","city":"Saint Joseph","address":"721 Pleasant St","phone":"2692817100","website_url":"http:\/\/silverharborbrewing.com","longitude":-86.48027459,"latitude":42.10893033},
{"name":"Sister Lakes Brewing Company","brewery_type":"brewpub","city":"Dowagiac","address":"92500 County Road 690","phone":"2693325135","website_url":"http:\/\/www.sisterlakesbrewing.com","longitude":null,"latitude":null},
{"name":"Snowbelt Brewing Company","brewery_type":"brewpub","city":"Gaylord","address":"132 W Main St Unit 1","phone":"9894487077","website_url":null,"longitude":null,"latitude":null},
{"name":"Soo Brewing Company","brewery_type":"micro","city":"Sault Sainte Marie","address":"223 W Portage Ave","phone":"9066324400","website_url":"http:\/\/www.soobrew.com","longitude":-84.3482782,"latitude":46.50089794},
{"name":"South Haven Brewpub","brewery_type":"brewpub","city":"South Haven","address":"515 Williams St Ste 23","phone":"2697677105","website_url":"http:\/\/www.southhavenbrewpub.com","longitude":null,"latitude":null},
{"name":"Spartan Brewpub","brewery_type":"brewpub","city":"Mason","address":"3056 Okemos Rd","phone":"5175075098","website_url":"http:\/\/spartanbrewpub.com\/","longitude":-84.43276467,"latitude":42.67095756},
{"name":"Speciation Artisan Ales","brewery_type":"micro","city":"Comstock Park","address":"3720 West River Dr NE Ste 201","phone":"6166666783","website_url":"http:\/\/speciationartisanales.com","longitude":null,"latitude":null},
{"name":"Sports Brewpub","brewery_type":"brewpub","city":"Wyandotte","address":"166 Maple St","phone":"7342855060","website_url":null,"longitude":-83.15132628,"latitude":42.20229805},
{"name":"St Ambrose Cellars","brewery_type":"micro","city":"Beulah","address":"841 S Pioneer Rd","phone":"2313834262","website_url":"http:\/\/www.stambrose-mead-wine.com","longitude":null,"latitude":null},
{"name":"Starving Artist Brewing","brewery_type":"micro","city":"Ludington","address":"634 S Stiles Rd","phone":"2317941399","website_url":"http:\/\/starvingartist.beer","longitude":null,"latitude":null},
{"name":"Stiggs Brewery & Kitchen","brewery_type":"brewpub","city":"Boyne City","address":"112 S Park St","phone":"2314976100","website_url":"http:\/\/www.stiggsbrewingcompany.com","longitude":null,"latitude":null},
{"name":"Stony Lake Brewing Company","brewery_type":"micro","city":"Saline","address":"447 E Michigan Ave","phone":"7343167919","website_url":"http:\/\/www.stonylakebrewing.com","longitude":-83.7735354,"latitude":42.17041729},
{"name":"Stormcloud Brewing Company","brewery_type":"brewpub","city":"Frankfort","address":"303 Main St","phone":"2316519080","website_url":"http:\/\/www.stormcloudbrewing.com","longitude":-86.24100175,"latitude":44.63290605},
{"name":"Stormcloud Brewing Company Production Facility","brewery_type":"micro","city":"Frankfort","address":"366 Parkview Ln","phone":null,"website_url":null,"longitude":-86.2218117,"latitude":44.6373933},
{"name":"Strand Brewery","brewery_type":"brewpub","city":"Dowagiac","address":"93415 County Road 690","phone":"2694247500","website_url":"http:\/\/www.strandbrewery.com","longitude":null,"latitude":null},
{"name":"Sugarfoot Saloon","brewery_type":"brewpub","city":"Cedar","address":"4997 S Good Harbor Trl","phone":"2312286166","website_url":null,"longitude":-85.79625698,"latitude":44.90785082},
{"name":"Superior Coast Brewery \/ Karls Cuisine Winery and Brewery","brewery_type":"brewpub","city":"Sault Sainte Marie","address":"447 W Portage Ave","phone":"9062531900","website_url":"http:\/\/www.karlscuisine.com","longitude":-84.35344671,"latitude":46.50179396},
{"name":"Tahquamenon Falls Brewery and Pub","brewery_type":"brewpub","city":"Paradise","address":"M-123 Upper Falls Dr","phone":"9064923300","website_url":"http:\/\/www.tahquamenonfallsbrewery.com","longitude":null,"latitude":null},
{"name":"Tapistry Brewing Company","brewery_type":"micro","city":"Bridgman","address":"4236 Lake St","phone":"2692667349","website_url":"http:\/\/www.tapistrybrewing.com","longitude":-86.5561575,"latitude":41.9427559},
{"name":"TBD","brewery_type":"micro","city":"Armada","address":"17985 Armada Center Rd","phone":"5869897454","website_url":"http:\/\/www.blakeshardcider.com","longitude":-82.95124856,"latitude":42.84942455},
{"name":"Tecumseh Brewing Company","brewery_type":"brewpub","city":"Tecumseh","address":"128 W Chicago Blvd","phone":"5178151726","website_url":"http:\/\/www.tecumsehbrewingco.com","longitude":-83.946191,"latitude":42.004052},
{"name":"Tenacity Brewing","brewery_type":"micro","city":"Flint","address":"119 N Grand Traverse St","phone":"8103396676","website_url":"http:\/\/www.tenacitybrewing.com","longitude":-83.69663179,"latitude":43.01522788},
{"name":"Territorial Brewing Company","brewery_type":"brewpub","city":"Springfield","address":"256 Helmer Rd N","phone":"2692821694","website_url":"http:\/\/www.territorialbrewing.com","longitude":-85.23565712,"latitude":42.3151618},
{"name":"Territorial Brewing Company Production Facility","brewery_type":"micro","city":"Springfield","address":"2815 6th Ave","phone":"2694410030","website_url":null,"longitude":-85.22954317,"latitude":42.31466956},
{"name":"Texas Corners Brewing Company","brewery_type":"brewpub","city":"Kalamazoo","address":"6970 Texas Dr","phone":"2698707724","website_url":"http:\/\/www.texascornersbrewing.com","longitude":-85.6486336,"latitude":42.2300087},
{"name":"The Boathouse Beer Co and Boozery","brewery_type":"brewpub","city":"Tawas City","address":"450 W Lake St","phone":"9899845233","website_url":"http:\/\/www.boathousebeerco.com","longitude":-83.5169024,"latitude":44.26826378},
{"name":"The Distant Whistle Brewhouse","brewery_type":"micro","city":"Vicksburg","address":"118 S Main St","phone":"2693707549","website_url":"http:\/\/www.distantwhistle.com","longitude":-85.53248776,"latitude":42.11909502},
{"name":"The Filling Station Microbrewery","brewery_type":"micro","city":"Traverse City","address":"642 Railroad Pl","phone":"2319468168","website_url":"http:\/\/www.thefillingstationmicrobrewery.com","longitude":-85.609476,"latitude":44.7580963},
{"name":"The Highway Brewing Co.","brewery_type":"brewpub","city":"West Branch","address":"209 W Houghton Ave","phone":"9897090716","website_url":"http:\/\/www.highwaybrewingco.com","longitude":-84.23751651,"latitude":44.27635208},
{"name":"The Knickerbocker\/ New Holland Brewing","brewery_type":"brewpub","city":"Grand Rapids","address":"417 Bridge St NW","phone":"6163455642","website_url":null,"longitude":-85.68044312,"latitude":42.97068214},
{"name":"The Livery","brewery_type":"brewpub","city":"Benton Harbor","address":"190 5th St","phone":"2699258760","website_url":"http:\/\/www.liverybrew.com","longitude":-86.45330019,"latitude":42.11813538},
{"name":"The Maple Grille LLC","brewery_type":"brewpub","city":"Hemlock","address":"13105 Gratiot Rd","phone":null,"website_url":null,"longitude":-84.1741049,"latitude":43.4157758},
{"name":"The Mitten Brewing Co","brewery_type":"brewpub","city":"Grand Rapids","address":"527 Leonard St NW","phone":"6166085612","website_url":"http:\/\/www.mittenbrewing.com","longitude":-85.68101,"latitude":42.98507733},
{"name":"The Mitten Brewing Company - Saugatuck","brewery_type":"brewpub","city":"Saugatuck","address":"329 Water St","phone":"6166085612","website_url":null,"longitude":-86.20524129,"latitude":42.65689129},
{"name":"The Mitten Brewing Company Production Facility","brewery_type":"micro","city":"Grand Rapids","address":"540 Leonard St NW","phone":null,"website_url":null,"longitude":-85.68100276,"latitude":42.98491266},
{"name":"The Parlor","brewery_type":"brewpub","city":"Traverse City","address":"205 Lake Ave","phone":"2319414422","website_url":"http:\/\/www.bigtoebrewery.com","longitude":-85.6204308,"latitude":44.7601402},
{"name":"The Red Baron","brewery_type":"brewpub","city":"Burton","address":"2495 S Center Rd","phone":"8107441310","website_url":"http:\/\/www.baronburger.com","longitude":-83.63373728,"latitude":42.9924788},
{"name":"The Sanford Beverage Company, Inc. D.B.A. Steele Street Brewing","brewery_type":"brewpub","city":"Ionia","address":"300 S Steele St","phone":"6165234003","website_url":"http:\/\/www.steelestreetbrewing.com","longitude":-85.06766243,"latitude":42.98135831},
{"name":"Third Monk Brewing Co","brewery_type":"micro","city":"South Lyon","address":"228 S Lafayette St","phone":"2482786366","website_url":"http:\/\/www.thirdmonkbrewingco.com","longitude":-83.65116644,"latitude":42.45482138},
{"name":"Third Nature Brewing Co.","brewery_type":"planning","city":"Rockford","address":null,"phone":null,"website_url":null,"longitude":null,"latitude":null},
{"name":"Thornapple Brewing Company","brewery_type":"micro","city":"Grand Rapids","address":"6262 28th st SE","phone":"6164226209","website_url":"http:\/\/Www.thornapplebrewing.com","longitude":-85.6506666,"latitude":42.9128114},
{"name":"Three Blondes Brewing","brewery_type":"brewpub","city":"South Haven","address":"1875 Phoenix St","phone":null,"website_url":"http:\/\/www.threeblondesbrewing.com","longitude":-86.2642391,"latitude":42.4033183},
{"name":"Tibbs Brewing Co","brewery_type":"brewpub","city":"Kalamazoo","address":"402 S Burdick St","phone":"8777627397","website_url":null,"longitude":-85.58320831,"latitude":42.28859949},
{"name":"Tilted Axis Brewing Company","brewery_type":"brewpub","city":"Lapeer","address":"303 W Nepessing St","phone":"8109694477","website_url":"http:\/\/www.tiltedaxis.beer","longitude":-83.31247549,"latitude":43.05377576},
{"name":"Tootsie's Brewery \/ Lone Oak Vineyard","brewery_type":"brewpub","city":"Grass Lake","address":"8400 Ann Arbor Rd","phone":"5175228167","website_url":"http:\/\/www.tootsiesbrewery.com","longitude":null,"latitude":null},
{"name":"Townies Brewery","brewery_type":"brewpub","city":"Ann Arbor","address":"2350 W Liberty Rd","phone":null,"website_url":null,"longitude":-83.7891745,"latitude":42.2730356},
{"name":"Traffic Jam and Snug","brewery_type":"brewpub","city":"Detroit","address":"4268 2nd Ave","phone":"3138319470","website_url":"http:\/\/www.trafficjamdetroit.com","longitude":-83.086546,"latitude":42.384371},
{"name":"Trail Point Brewing Co.","brewery_type":"micro","city":"Allendale","address":"6035 Lake Michigan Dr","phone":"6168952739","website_url":"http:\/\/www.trailpointbrewing.com","longitude":-85.93541536,"latitude":42.97207782},
{"name":"Transient Artisan Ales","brewery_type":"micro","city":"Bridgman","address":"4229 Lake St","phone":null,"website_url":null,"longitude":-86.55570937,"latitude":41.94299804},
{"name":"Tri City Brewing Co","brewery_type":"micro","city":"Bay City","address":"4170 Shrestha Dr","phone":"9896861340","website_url":"http:\/\/www.tricitybrewing.com","longitude":null,"latitude":null},
{"name":"Tripelroot","brewery_type":"brewpub","city":"Zeeland","address":"146 E Main Ave","phone":"6169530050","website_url":"http:\/\/www.tripelroot.com","longitude":-86.01463482,"latitude":42.81211765},
{"name":"Tripelroot Production Facility","brewery_type":"micro","city":"Holland","address":"2262 112th Ave","phone":null,"website_url":null,"longitude":-86.0580859,"latitude":42.802587},
{"name":"Tujax Tavern","brewery_type":"brewpub","city":"Delton","address":"103 S Grove St","phone":"2696238310","website_url":null,"longitude":-85.407991,"latitude":42.496258},
{"name":"Tunnel Vision Brewery","brewery_type":"brewpub","city":"Harbor Springs","address":"5699 S Lake Shore Dr","phone":"2315263276","website_url":"http:\/\/www.pondhill.com","longitude":-85.065042,"latitude":45.471828},
{"name":"TwoGuys Brewing","brewery_type":"brewpub","city":"Wyoming","address":"2356 Porter St SW","phone":"6165529690","website_url":"http:\/\/www.twoguysbrewing.beer","longitude":-85.72355013,"latitude":42.92114925},
{"name":"UBrew Nanobrewery","brewery_type":"micro","city":"Traverse City","address":"3054 Cass Rd Unit F","phone":"2319432016","website_url":"http:\/\/www.ubrewtc.com","longitude":null,"latitude":null},
{"name":"Unruly Brewing Company","brewery_type":"micro","city":"Muskegon","address":"360 W Western Ave","phone":"2312881068","website_url":"http:\/\/www.unrulybrewing.com","longitude":-86.25381541,"latitude":43.23504367},
{"name":"Upper Hand Brewery","brewery_type":"micro","city":"Escanaba","address":"3525 Airport Rd","phone":"2693822338","website_url":"http:\/\/www.upperhandbrewery.com","longitude":-87.097528,"latitude":45.7164279},
{"name":"Urbanrest Brewing Company","brewery_type":"micro","city":"Ferndale","address":"2615 Wolcott St","phone":null,"website_url":"http:\/\/www.urbanrest.com","longitude":-83.1274188,"latitude":42.4679929},
{"name":"Vander Mill","brewery_type":"brewpub","city":"Grand Rapids","address":"505 Ball Ave NE","phone":"6162598828","website_url":"http:\/\/www.vandermill.com","longitude":-85.6305954,"latitude":42.9712724},
{"name":"VanMax Brewing Company LLC","brewery_type":"micro","city":"Decatur","address":"103 N Phelps St","phone":"2692171720","website_url":"http:\/\/www.vanmaxbrewing.com","longitude":-85.97454749,"latitude":42.10876694},
{"name":"Vierling Restaurant & Marquette Harbor Brewery","brewery_type":"brewpub","city":"Marquette","address":"119 S Front St","phone":"9062283533","website_url":"http:\/\/www.thevierling.com","longitude":-87.3928955,"latitude":46.5425586},
{"name":"Vivio's Food","brewery_type":"planning","city":"Detroit","address":null,"phone":"3133931711","website_url":"http:\/\/www.viviosdetroit.com","longitude":null,"latitude":null},
{"name":"Walldorff Brewpub & Bistro","brewery_type":"brewpub","city":"Hastings","address":"105 E State St","phone":"2699454400","website_url":"http:\/\/www.walldorffbrewpub.com","longitude":-85.284584,"latitude":42.6487487},
{"name":"WAR WATER BREWERY","brewery_type":"brewpub","city":"Saint Clair","address":"201 N Riverside Ave Ste C1-11","phone":"8102893921","website_url":"http:\/\/www.warwaterbrewery.com","longitude":null,"latitude":null},
{"name":"Watermark Brewing Company","brewery_type":"micro","city":"Stevensville","address":"5781 Saint Joseph Ave","phone":"2692810872","website_url":"http:\/\/www.watermarkbrewing.com","longitude":-86.51963025,"latitude":42.01286668},
{"name":"Waypost Brewing Co.","brewery_type":"planning","city":"Fennville","address":null,"phone":"6169162362","website_url":"http:\/\/waypostbeer.com","longitude":null,"latitude":null},
{"name":"Whiskey Point Brewing Company","brewery_type":"planning","city":"Beaver Island","address":null,"phone":"2313737842","website_url":"http:\/\/www.whiskeypointbrewing.com","longitude":null,"latitude":null},
{"name":"White Flame Brewing Co","brewery_type":"brewpub","city":"Hudsonville","address":"5234 36th Ave","phone":"6162095098","website_url":"http:\/\/www.whiteflamebrewing.com","longitude":null,"latitude":null},
{"name":"Wiltse's Brew Pub and Family Restaurant","brewery_type":"brewpub","city":"Oscoda","address":"5606 F 41","phone":"9897392231","website_url":"http:\/\/www.wiltsebrewpub.com","longitude":null,"latitude":null},
{"name":"Witch's Hat Brewing","brewery_type":"micro","city":"South Lyon","address":"601 S Lafayette St","phone":"2484862595","website_url":"http:\/\/www.witchshatbrewing.com","longitude":-83.65099308,"latitude":42.45542522},
{"name":"Wolverine State Brewing Co","brewery_type":"brewpub","city":"Ann Arbor","address":"2019 W Stadium Blvd # 103","phone":"7343692990","website_url":"http:\/\/www.wolverinebeer.com","longitude":-83.7745473,"latitude":42.2694316},
{"name":"Woodward Avenue Brewers","brewery_type":"brewpub","city":"Ferndale","address":"22646 Woodward Ave","phone":"2485463696","website_url":"http:\/\/www.thewabsite.com","longitude":-83.13333109,"latitude":42.4596444},
{"name":"Workshop Brewing Co","brewery_type":"brewpub","city":"Traverse City","address":"221 Garland St Ste A","phone":"12314218966","website_url":"http:\/\/www.traversecityworkshop.com","longitude":null,"latitude":null}]